time,utm_x,utm_y,x,y,z,ve,vn,vu,pitch,roll,yaw,qbn_0,qbn_1,qbn_2,qbn_3,init_align,x_sd,y_sd,z_sd,vx_sd,vy_sd,vz_sd,pitch_sd,roll_sd,yaw_sd,state,attacked
1523501425.3697443,351273.82743316103,4026501.138241579,2.222538445992439,0.634813487191318,60.06772196056826,1.0308551382485465,4.615025930008309,0.0272756308148229,-0.0115908434831202,0.0111664441625147,0.2834530689214878,-0.6433476008770335,0.0068890471660004,-0.00333775062539,-0.344575575804857,1.0,0.0011051832212303,0.0003012287350329,0.0134135690321851,0.0003617723386985,0.0002582727601734,7.025905502776736e-05,0.0038321211464879,0.0038749340121888,0.0054096242488357,2.8794258748736867,1.0
1523501425.3697443,351273.8274350021,4026501.138262643,2.2225384459927264,0.6348134871946364,60.06772274914111,1.030856274652733,4.615025263450547,0.0272759461300449,-0.0115907809622175,0.0111665673815919,0.283453072926512,-0.6433476034494775,0.0068890046990532,-0.0033378070132976,-0.3445755777314062,1.0,0.001105198661973,0.0003013003514551,0.0134135725360499,0.0003617816058631,0.0002583108541883,7.025964481422462e-05,0.0038322791580825,0.0038749724199828,0.005409667588279,2.8794258748736867,1.0
1523501425.3697443,351273.8274246665,4026501.1383008007,2.222538445990591,0.6348134872006083,60.06942625917527,1.030863577962757,4.6150457120651005,0.0273733328993806,-0.011634516833627,0.0111437957323039,0.2834501227303734,-0.6433483090090667,0.0068974404371681,-0.0033180972147007,-0.3445744006391179,1.0,0.0011051226081617,0.0003013797688455,0.0134121827187112,0.0003617349395699,0.0002583486161919,7.02473357002482e-05,0.003832515152538,0.0038748251560721,0.0054096443591619,2.8794258748736867,1.0
1523501425.3697443,351273.8274295323,4026501.138333506,2.222538445991425,0.6348134872057666,60.06772249039054,1.0308545423480646,4.615020315705488,0.0272758706356107,-0.011590403559696,0.0111665829269207,0.2834530773775237,-0.64334760489504,0.0068888144559255,-0.0033377669784635,-0.3445755816002394,1.0,0.0011051736828696,0.0003012910671449,0.0134135686665458,0.0003617701768024,0.0002583009904276,7.025901867974866e-05,0.0038322273526358,0.0038749285057608,0.0054096246783743,2.8794258748736867,1.0
1523501425.3697443,351273.8274288111,4026501.1383427023,2.2225384459912534,0.6348134872072113,60.06772462723338,1.0308556656893733,4.615026935775958,0.0272767152189682,-0.0115905824053257,0.0111665079195361,0.2834530481788265,-0.643347616645808,0.0068888555540047,-0.0033377818523679,-0.3445755889282467,1.0,0.0011052315563016,0.0003013668910463,0.0134135828913946,0.0003617999052723,0.0002583432393274,7.026131526601265e-05,0.0038324138821298,0.0038750523985782,0.005409782118926,2.8794258748736867,1.0
1523501425.3697443,351273.82742477243,4026501.1383583415,2.222538445990416,0.63481348720966,60.06772229300601,1.0308547111744764,4.615025622983197,0.0272758382938492,-0.0115905604392462,0.0111665823651758,0.2834530803536574,-0.6433476051144108,0.0068888923374048,-0.0033377680533819,-0.3445755811980261,1.0,0.0011051744494372,0.0003013707841792,0.0134135684352548,0.0003617698269032,0.000258341646622,7.025898644339491e-05,0.0038323932045859,0.0038749260592942,0.0054096210515234,2.8794258748736867,1.0
1523501425.3697443,351273.82742156315,4026501.1383721153,2.2225384459897457,0.6348134872118176,60.067722321190125,1.0308546598343782,4.615026845709695,0.0272757578387138,-0.0115905521557287,0.011166588547861,0.2834530800331059,-0.6433476059105993,0.0068888896405508,-0.0033377671676109,-0.3445755805303517,1.0,0.0011051769776513,0.0003014143490928,0.0134135688391283,0.0003617717298894,0.0002583645226187,7.025904461940075e-05,0.0038324881346436,0.0038749344757066,0.0054096263983982,2.8794258748736867,1.0
1523501425.3697443,351273.8274192529,4026501.1383878463,2.2225384459892434,0.6348134872142854,60.06772284741253,1.0308545404427905,4.615029270622642,0.0272762526654144,-0.0115906360467714,0.0111665932520886,0.2834530682294062,-0.6433476047016122,0.0068889294939989,-0.0033377765123734,-0.3445755741733123,1.0,0.0011052060913746,0.0003014809473487,0.0134135731198863,0.0003617862227494,0.0002583992996508,7.025957906917364e-05,0.0038326300600314,0.0038749896075235,0.005409680032506,2.8794258748736867,1.0
1523501425.3697443,351273.8274156414,4026501.138404726,2.222538445988484,0.6348134872169305,60.067722433221206,1.0308544750314543,4.615028289542519,0.0272759153908744,-0.0115907188980836,0.0111665577668464,0.2834530752606292,-0.643347606088631,0.0068889720794511,-0.0033377779125864,-0.3445755778887105,1.0,0.0011051817210555,0.0003014987294786,0.0134135691333162,0.0003617735182802,0.0002584077241782,7.025907907508068e-05,0.0038326659542733,0.0038749409911393,0.0054096299749551,2.8794258748736867,1.0
1523501425.3697443,351273.82741197944,4026501.13842448,2.2225384459877056,0.6348134872200276,60.06772434159825,1.030853857986531,4.615023996639079,0.0272763237767108,-0.0115905948044411,0.011166444500141,0.2834530751290833,-0.6433476100517171,0.0068889336226849,-0.0033377223248712,-0.3445755788222486,1.0,0.0011051906847734,0.0003015753902919,0.0134135748831822,0.0003617786401264,0.0002584471068932,7.025943260839505e-05,0.0038328280561336,0.003874960782405,0.0054096540130873,2.8794258748736867,1.0
1523501425.3697443,351273.82737899426,4026501.138265732,2.222538445981814,0.634813487194967,60.06809422107132,1.0308270818955407,4.615058850184743,0.0273760727062822,-0.0116441169631115,0.0110509182844498,0.2834997889996211,-0.6433522151735962,0.0068712958722665,-0.0032823199009269,-0.3445705810286895,1.0,0.0011047942577825,0.0003016061983325,0.0134119494002211,0.0003615981158776,0.0002584348153214,7.025728189837141e-05,0.0038315493005746,0.003874115664503,0.0054096402542225,2.8794258748736867,1.0
1523501425.3697443,351273.8274814557,4026501.138480384,2.222538446001029,0.634813487229009,60.06772849822964,1.0308951671343902,4.615021506364264,0.0272787025131184,-0.0115895218407144,0.0111668658757165,0.2834530457098434,-0.6433476224016313,0.0068886072822983,-0.0033381588382272,-0.3445755660912295,1.0,0.001105685765108,0.0003019108328058,0.0134135899498968,0.0003619139249414,0.0002586264799249,7.026155429719805e-05,0.00383356077998,0.0038752810649889,0.0054098723931381,2.8794258748736867,1.0
1523501425.3697443,351273.8274149751,4026501.138492764,2.2225384459880604,0.6348134872307749,60.06772433620057,1.0308505473677936,4.615014301117039,0.0272779133755938,-0.0115918574145094,0.0111687658089448,0.283453286652892,-0.6433475806607232,0.0068888589780244,-0.0033385382322588,-0.3445757200958051,1.0,0.0011051154027039,0.0003018200611197,0.0134135690134933,0.0003617640456097,0.0002585844187914,7.025908886437814e-05,0.0038334016820269,0.0038749349435124,0.005409629084993,2.8794258748736867,1.0
1523501425.3697443,351273.8274829975,4026501.1385084074,2.222538446001236,0.6348134872334195,60.06915429339687,1.030895602889149,4.615032130933978,0.0274027912388094,-0.0115839115603666,0.0112110751636963,0.2834526615638152,-0.6433477085638436,0.0068986913480946,-0.0033567410107097,-0.3445752857442387,1.0,0.0011052288048476,0.0003017770292952,0.0134136076914002,0.0003617887246359,0.0002585584637078,7.025775050377713e-05,0.0038334781695818,0.0038751244653174,0.0054096207656189,2.8794258748736867,1.0
1523501425.3697443,351273.8273982752,4026501.138525887,2.2225384459846995,0.6348134872359397,60.06772229418213,1.0308542931095546,4.615021399070869,0.0272758157428574,-0.0115905577634002,0.0111667645966716,0.283453076713679,-0.6433476060846832,0.0068888515691024,-0.0033378813153,-0.3445755739995949,1.0,0.0011052066152998,0.0003018729444,0.0134135698782531,0.0003617874082952,0.0002586109971754,7.025922147749904e-05,0.0038335077458983,0.0038750007146085,0.0054096389768042,2.8794258748736867,1.0
1523501425.3697443,351273.82739553147,4026501.13855262,2.2225384459840765,0.634813487240137,60.06772221434888,1.0308542659957936,4.615018490414817,0.0272759239608537,-0.0115904834147779,0.0111665253022845,0.2834530683776429,-0.6433476081989633,0.0068888582508746,-0.003337781841118,-0.3445755756310635,1.0,0.001105185318562,0.0003019174033854,0.0134135686633417,0.0003617746298801,0.0002586357703212,7.025906045625092e-05,0.0038336109928169,0.0038749446229467,0.005409622914355,2.8794258748736867,1.0
1523501425.3697443,351273.82739826577,4026501.1385628376,2.222538445984574,0.6348134872417514,60.06772244491398,1.030854873254767,4.615018039917673,0.0272758710819854,-0.0115904700987437,0.0111664391113518,0.2834530760860689,-0.6433476088243275,0.0068888628208797,-0.0033377464912584,-0.3445755798754996,1.0,0.0011051879913534,0.0003019392978318,0.0134135703330383,0.000361775994386,0.0002586472081777,7.025927495134947e-05,0.0038336577543625,0.0038749510802122,0.0054096443778964,2.8794258748736867,1.0
1523501425.3697443,351273.8273949306,4026501.1385707855,2.222538445983899,0.6348134872429922,60.06772227605056,1.0308546649655987,4.615019106345937,0.0272759013874191,-0.011590512635759,0.0111664041312291,0.2834530851227097,-0.6433476100979371,0.0068888891366762,-0.0033377332266665,-0.3445755835322101,1.0,0.0011051903130773,0.0003019269716417,0.0134135706582704,0.0003617775339327,0.0002586409610285,7.025933097011349e-05,0.0038336336089807,0.0038749580199323,0.005409649721217,2.8794258748736867,1.0
1523501425.3697443,351273.8273948013,4026501.138589606,2.22253844598381,0.634813487245952,60.06772200047714,1.0308544478434458,4.615018180472511,0.0272755896484227,-0.0115904974123857,0.0111665709830435,0.2834530732543528,-0.6433476071862314,0.0068888532795655,-0.003337809413298,-0.344575578629852,1.0,0.0011051793514197,0.0003019693916043,0.0134135693473406,0.000361772181038,0.0002586627896237,7.025916574659125e-05,0.0038337196146392,0.0038749365563333,0.0054096318553624,2.8794258748736867,1.0
1523501425.3697443,351273.82739441167,4026501.138601271,2.222538445983695,0.6348134872477857,60.06767581916791,1.0308527537998493,4.615023057073863,0.0272422825741487,-0.0115911250553465,0.0111674816857596,0.283453248917465,-0.6433476345368787,0.0068889000165802,-0.0033383586314068,-0.3445756571537068,1.0,0.0011051731440816,0.0003019780070939,0.0134135689264583,0.0003617690394755,0.000258666982605,7.025910894469482e-05,0.0038337388797031,0.003874927417636,0.0054096265154238,2.8794258748736867,1.0
1523501425.3697443,351273.8273977184,4026501.138604684,2.222538445984327,0.6348134872483313,60.06772202474507,1.0308548027463318,4.6150179743361965,0.0272755462190258,-0.0115904559108857,0.0111666538646212,0.2834530732052723,-0.6433476062199697,0.0068888229216437,-0.0033378490949423,-0.3445755793829463,1.0,0.0011051662658969,0.0003019849596655,0.0134135688491331,0.0003617658909507,0.0002586707202786,7.025912085722805e-05,0.0038337505695968,0.003874912356403,0.0054096246940713,2.8794258748736867,1.0
1523501425.3697443,351273.8273557085,4026501.1384303207,2.222538445976732,0.6348134872207903,60.06810746645326,1.0308252079620814,4.615053480054169,0.0273866676129851,-0.0116541245951097,0.0110493376841964,0.2834997969627694,-0.6433521756663257,0.0068743220683126,-0.0032820434207603,-0.344570566922646,1.0,0.0011048123519603,0.0003019770699101,0.0134119506318118,0.000361601897866,0.0002586337909514,7.025743562951467e-05,0.0038323609902499,0.0038741181062049,0.0054096533840749,2.8794258748736867,1.0
1523501425.3697443,351273.8273925583,4026501.138621378,2.2225384459832678,0.6348134872509432,60.06772175072104,1.0308556196325367,4.615017510460536,0.0272755159685518,-0.0115904677719476,0.0111665725879272,0.2834530812059426,-0.643347608248515,0.0068888397959163,-0.0033378041968556,-0.3445755840252235,1.0,0.0011051774517476,0.0003020069996255,0.01341357017755,0.0003617711664215,0.0002586822919233,7.025926703157687e-05,0.0038337973633593,0.0038749325346346,0.0054096425642425,2.8794258748736867,1.0
1523501425.3697443,351273.8273877934,4026501.138626124,2.222538445982324,0.6348134872516765,60.06768427894082,1.030854507723015,4.615012758899583,0.0272479368123829,-0.0115888369139867,0.0111667830401696,0.2834530584276185,-0.6433476070636513,0.0068880875188625,-0.0033374563520816,-0.3445755664082484,1.0,0.0011051801561459,0.000302014426288,0.013413570637636,0.0003617723544725,0.0002586860706564,7.025936686855065e-05,0.0038338165295434,0.0038749407577924,0.0054096479042937,2.8794258748736867,1.0
1523501425.3697443,351273.82738421595,4026501.1386383297,2.222538445981588,0.6348134872535867,60.067722304587136,1.0308545125907422,4.615017755205535,0.0272758301916213,-0.0115903771520809,0.0111664934239569,0.2834530750953107,-0.6433476077923224,0.0068888144992268,-0.0033377515787511,-0.344575581070688,1.0,0.001105169760011,0.0003020101922533,0.0134135688419622,0.0003617668774328,0.000258683496455,7.025907548067379e-05,0.0038338013013575,0.0038749133692403,0.0054096229200225,2.8794258748736867,1.0
1523501425.3697443,351273.82740219106,4026501.138638247,2.2225384459850845,0.6348134872536225,60.067725132141305,1.0308762854335394,4.615009982995029,0.0272775173114726,-0.0115923802952761,0.0111632585450471,0.2834531649233316,-0.6433475001585262,0.0068883710747135,-0.0033377164563561,-0.3445755487655563,1.0,0.0011051453874705,0.0003020206693724,0.0134135687533677,0.0003617634419484,0.0002586883196579,7.025910835157903e-05,0.0038338230757012,0.0038749136573096,0.0054096236308079,2.8794258748736867,1.0
1523501425.3697443,351273.82734817977,4026501.138471359,2.2225384459751307,0.6348134872272243,60.06809464451614,1.030828255502419,4.615051766452361,0.0273765518471019,-0.0116438466865938,0.0110510678413405,0.2834998234244817,-0.6433522019715336,0.0068711153670072,-0.0032824011547355,-0.3445705949793246,1.0,0.0011048212484915,0.0003020410577949,0.0134119553379054,0.0003616116917326,0.0002586663866553,7.025807884689833e-05,0.0038324927287286,0.0038741686215971,0.0054097121186575,2.8794258748736867,1.0
1523501425.3697443,351273.8273438241,4026501.138479091,2.2225384459742568,0.6348134872284287,60.06809408423115,1.030827073094752,4.615052578725741,0.0273760055675105,-0.0116438832028377,0.0110511226505173,0.2834997888680718,-0.6433522146111543,0.0068711471381416,-0.0032824109729967,-0.3445705829315641,1.0,0.0011047847855256,0.0003020105932073,0.0134119494517487,0.0003615937681497,0.0002586504717676,7.025733209721963e-05,0.0038324282585425,0.0038740996870287,0.0054096403028064,2.8794258748736867,1.0
1523501425.3697443,351273.8273854366,4026501.138670084,2.2225384459817192,0.634813487258584,60.06771917075351,1.0308622455520708,4.615025133773392,0.0272730489907729,-0.0115878525942828,0.0111666911398075,0.2834530997782341,-0.6433475883927601,0.0068885771536018,-0.0033381028902822,-0.344575546606959,1.0,0.0011051575872439,0.0003020409557063,0.0134135705005783,0.0003617691532994,0.0002586994156832,7.025934747967606e-05,0.0038338644151455,0.0038749376135064,0.0054096462634358,2.8794258748736867,1.0
1523501425.3697443,351273.827376002,4026501.1386665422,2.222538445979896,0.6348134872580018,60.06772217667911,1.0308557676957315,4.615017447892921,0.0272757352485704,-0.0115904069874008,0.0111665656166906,0.2834530757254295,-0.6433476080113691,0.0068888178796595,-0.0033377880509772,-0.3445755801852131,1.0,0.0011051653104997,0.0003020275909724,0.0134135688119768,0.0003617652231929,0.0002586924688006,7.025909650369178e-05,0.0038338377482645,0.0038749096107485,0.0054096246924302,2.8794258748736867,1.0
1523501425.3697443,351273.8273797592,4026501.138671405,2.22253844598061,0.6348134872587768,60.0677074576531,1.0308531778662169,4.615023798015558,0.0272661125248165,-0.0115901503514086,0.0111659755882489,0.283453326441816,-0.6433476952523935,0.0068889013791733,-0.0033374804005553,-0.3445756832891319,1.0,0.0011051830642916,0.0003020528385334,0.0134135715763868,0.000361774527809,0.000258705794316,7.025944387151645e-05,0.0038338944096701,0.0038749492775276,0.0054096604102913,2.8794258748736867,1.0
1523501425.3697443,351273.8273856122,4026501.1386693222,2.222538445981755,0.6348134872584649,60.06772208020597,1.030857327352187,4.615018007489573,0.0272760734681784,-0.0115904510111711,0.0111666192773042,0.2834530866924536,-0.6433476107633175,0.0068888284483846,-0.0033378232925082,-0.3445755855502665,1.0,0.0011051631104738,0.000302041011058,0.0134135707484258,0.0003617644769118,0.0002586996192412,7.025933854963945e-05,0.0038338670500574,0.0038749072884325,0.0054096496844418,2.8794258748736867,1.0
1523501425.3697443,351273.8301753997,4026501.138619217,2.222538446524653,0.6348134872581103,60.0677520378154,1.0309938866699502,4.615008157615749,0.0272869544366875,-0.0115913433120851,0.011170671954416,0.2834516135500006,-0.6433472881438744,0.006888544718995,-0.003339848602683,-0.3445748344994992,1.0,0.0011174586319241,0.0003020162432281,0.0134136190859182,0.0003622810560393,0.0002586879062267,7.026366271805864e-05,0.0038338226709186,0.0038750516149489,0.0054098908733504,2.8793179566168607,1.0
1523501425.3697443,351273.8274018768,4026501.1386459097,2.222538445984997,0.6348134872548266,60.06786795757164,1.0308836177138645,4.614968396535905,0.0273830643177766,-0.0115889175990911,0.0111770489351732,0.2834519150820621,-0.643347212965842,0.0068854017592343,-0.0033418594195901,-0.3445750510857784,1.0,0.0011051504796204,0.0003020397631144,0.0134135699908675,0.0003617594672349,0.0002586999232289,7.025927175806984e-05,0.003833860562803,0.0038748790316173,0.0054096407338264,2.8794258748736867,1.0
1523501425.3697443,351273.8273847042,4026501.138684944,2.2225384459815265,0.6348134872609196,60.067722262488125,1.0308562490763586,4.61501745426143,0.027276049022735,-0.0115903838535361,0.0111665269392584,0.2834530765417377,-0.643347608281364,0.0068888108130502,-0.0033377669858041,-0.3445755804824733,1.0,0.0011051423132637,0.0003020421728863,0.0134135695939565,0.0003617542854307,0.0002587001701482,7.02592034840173e-05,0.0038338696358366,0.003874868555534,0.0054096354137015,2.8794258748736867,1.0
1523501425.3697443,351273.8273854275,4026501.138690535,2.222538445981648,0.6348134872618008,60.06772244177629,1.0308573905927996,4.615017359574557,0.0272760277958229,-0.011590399528803,0.0111665255271274,0.2834530755072512,-0.6433476080539878,0.0068888198689157,-0.0033377762292408,-0.3445755797047728,1.0,0.001105179150308,0.0003020442885029,0.0134135695920919,0.0003617596410442,0.0002587012470284,7.025919585992896e-05,0.0038338740116259,0.0038748742407395,0.0054096354069352,2.8794258748736867,1.0
1523501425.3697443,351273.8273788496,4026501.138696697,2.2225384459803483,0.6348134872627522,60.06772328046877,1.0308516793291098,4.615018570977572,0.0272765249107423,-0.0115902762055163,0.0111651621299066,0.2834531393973745,-0.6433476176527922,0.0068888815773957,-0.00333710978077,-0.3445756173298854,1.0,0.0011051276272682,0.0003020493641309,0.0134135684406763,0.0003617522285331,0.0002587030209388,7.025903318704196e-05,0.0038338787419695,0.00387486599062,0.0054096195782045,2.8794258748736867,1.0
1523501425.3697443,351273.82737681124,4026501.138706897,2.222538445979917,0.634813487264351,60.06773324368108,1.0308644323503422,4.615022071644183,0.0272839191543099,-0.0115875834269318,0.0111578008084782,0.2834530838692437,-0.6433476190064061,0.0068872252620251,-0.0033367519682414,-0.3445755872733969,1.0,0.0011051101786944,0.0003020587498332,0.0134135696611969,0.0003617574543175,0.0002587083786473,7.025928367158316e-05,0.0038339077454009,0.003874895051261,0.0054096475040527,2.8794258748736867,1.0
1523501425.3697443,351273.82737147284,4026501.138708498,2.222538445978874,0.6348134872645882,60.067722314089565,1.0308553322147864,4.615017541496887,0.0272757777958848,-0.0115904074068878,0.0111665356623679,0.2834530772019932,-0.6433476086799892,0.0068888210410915,-0.0033377784102772,-0.3445755809317094,1.0,0.0011051441428244,0.0003020529826759,0.0134135693150205,0.0003617550044749,0.0002587055240355,7.025915009217788e-05,0.003833890604532,0.0038748697476053,0.0054096300467216,2.8794258748736867,1.0
1523501425.3697443,351273.82736924995,4026501.138714261,2.222538445978422,0.6348134872654884,60.06772232303119,1.0308562588810604,4.615017305135508,0.0272757348874797,-0.0115904127255936,0.0111665445316783,0.28345307630125,-0.6433476074963362,0.0068888168230642,-0.0033377884858524,-0.3445755805092946,1.0,0.0011051461610584,0.0003020565200292,0.0134135694636948,0.0003617561957115,0.0002587074774498,7.025918017458525e-05,0.0038338990560366,0.0038748759574491,0.005409633645069,2.8794258748736867,1.0
1523501425.3697443,351273.8273764025,4026501.138717936,2.2225384459798008,0.6348134872660859,60.06772211527841,1.030855858938854,4.61501749796925,0.0272756530545038,-0.0115904233254535,0.0111665602010213,0.2834530739814804,-0.6433476079801185,0.0068888246960725,-0.0033377903251428,-0.3445755794736536,1.0,0.0011051263764336,0.0003020553805365,0.0134135685311163,0.0003617463177548,0.0002587065498232,7.025905390396355e-05,0.003833893997208,0.0038748370329513,0.0054096210887542,2.8794258748736867,1.0
1523501425.3697443,351273.8273828711,4026501.138720564,2.22253844598105,0.634813487266517,60.06772212286089,1.0308561221178745,4.615017421093554,0.0272756611157938,-0.0115904235637158,0.0111665520857978,0.2834530727734798,-0.6433476077330433,0.0068888269984727,-0.0033377867639733,-0.3445755789030838,1.0,0.0011051156421611,0.000302057503666,0.0134135686621608,0.0003617410979736,0.0002587076770422,7.025907002372238e-05,0.0038338986864015,0.0038748171862793,0.0054096228680017,2.8794258748736867,1.0
1523501425.3697443,351273.8274044079,4026501.138724944,2.2225384459852253,0.634813487267264,60.06771076424876,1.0308579646005371,4.615019701418348,0.0272671140086685,-0.0115881140865503,0.0111721564369745,0.28345307208674,-0.6433475853475106,0.0068893287596211,-0.0033394536321704,-0.3445755545628943,1.0,0.0011051310559882,0.0003020615721043,0.0134135696694705,0.00036173829228,0.0002587103701051,7.025916330467875e-05,0.0038339062202517,0.0038748131004439,0.0054096247266516,2.8794258748736867,1.0
1523501425.3697443,351273.827396695,4026501.138725505,2.222538445983722,0.6348134872673316,60.06772221044877,1.0308566083190538,4.615017709935264,0.0272757087727684,-0.0115904338782923,0.011166545689745,0.2834530767186697,-0.6433476041404689,0.0068888286407712,-0.0033377871407696,-0.3445755794350761,1.0,0.001105100831675,0.0003020723067946,0.0134135709617544,0.000361734271939,0.0002587158350563,7.025937919180214e-05,0.0038339338564376,0.0038747923939539,0.0054096533084368,2.8794258748736867,1.0
1523501425.3697443,351273.8273977444,4026501.138727457,2.222538445983919,0.6348134872676414,60.06772212587616,1.0308535880105183,4.615017411628275,0.0272756421057667,-0.011590414103736,0.0111665293541924,0.2834530736061456,-0.6433476082248129,0.0068888269407276,-0.0033377740084692,-0.3445755794404362,1.0,0.0011051098100764,0.0003020609347151,0.0134135686884365,0.0003617270063379,0.0002587094286916,7.02590737080615e-05,0.003833905769764,0.0038747503731561,0.0054096228535864,2.8794258748736867,1.0
1523501425.3697443,351273.82740670093,4026501.13872962,2.222538445985654,0.634813487268006,60.06772211936204,1.0308541018601436,4.615017454127877,0.0272756537504538,-0.0115904271934271,0.0111665214435956,0.2834530738898277,-0.6433476082096585,0.0068888333259281,-0.0033377732214755,-0.34457557949549,1.0,0.0011051263489088,0.000302062014384,0.0134135686713964,0.0003617209449826,0.0002587099733853,7.025907286686123e-05,0.0038339079591997,0.0038747235193979,0.0054096228509227,2.8794258748736867,1.0
1523501425.3697443,351273.8273784189,4026501.138724371,2.222538445980169,0.6348134872671041,60.06757281089523,1.0308445538442377,4.615005457416217,0.0272348148693696,-0.0116437205229019,0.0111551054364444,0.2835160098895076,-0.6433472807758968,0.006904746323379,-0.0033209725382943,-0.3445760504109466,1.0,0.0011049665230627,0.0003020654892646,0.01341200941581,0.0003617043583011,0.000258711221418,7.023613837076691e-05,0.0038337794020955,0.0038743897100928,0.0054096632204254,2.8794258748736867,1.0
1523501425.3697443,351273.82741992903,4026501.138728375,2.222538445988231,0.6348134872678464,60.0678189029627,1.0308442189215266,4.61501474018747,0.0272558488571745,-0.011624503809428,0.0111850644544353,0.2834534444371019,-0.6433474688604194,0.0069057455836292,-0.0033353998985555,-0.3445755724281032,1.0,0.0011050542930417,0.0003020756586616,0.0134129727903343,0.0003617119028475,0.0002587190048116,7.025587494712495e-05,0.003833905607652,0.003874595210494,0.0054096528980865,2.8794258748736867,1.0
1523501425.3697443,351273.82743487577,4026501.138535442,2.222538445991776,0.6348134872375366,60.06785561807747,1.0308480218046732,4.615021620941944,0.0273615682364411,-0.0116299111379677,0.0110442724532441,0.2835008919808993,-0.6433518133368303,0.0068646730614781,-0.0032843249799768,-0.3445710296259016,1.0,0.0011044473120064,0.0003020542848222,0.013412545997899,0.0003614498511819,0.00025867480997,7.025980082967752e-05,0.0038325378937517,0.0038735482316541,0.0054096409336254,2.8794258748736867,1.0
1523501425.3697443,351273.82751403266,4026501.138747903,2.2225384460064674,0.6348134872711712,60.0695504340579,1.030891920244953,4.615022928211016,0.0274229793768764,-0.0116399828607607,0.0112083907519912,0.2834535008796413,-0.6433474241215984,0.0069167332329952,-0.0033402032720129,-0.3445754535839607,1.0,0.0011049662249173,0.0003020637126917,0.0134107061537445,0.0003616686000171,0.0002587093093589,7.024527700730117e-05,0.0038335378645895,0.0038744322777243,0.005409622314752,2.8794258748736867,1.0
1523501425.3697443,351273.82746886247,4026501.1387004703,2.222538445997843,0.6348134872635885,60.06767153059091,1.0308612150595835,4.61498795078208,0.0273011862290551,-0.0115920446852568,0.0111663837494156,0.2834520126872005,-0.6433478106024872,0.0068891425929355,-0.0033368622321248,-0.3445752982226351,1.0,0.0011050351247827,0.0003021512786633,0.0134135629112685,0.0003617049711992,0.0002587513603635,7.02594455870184e-05,0.0038340635968192,0.0038746721409604,0.0054096493037533,2.8794258748736867,1.0
1523501425.3697443,351273.8274879951,4026501.138756289,2.222538446001377,0.6348134872724216,60.06897605254979,1.03085843457412,4.615039766719078,0.0273757979821719,-0.011626781755034,0.0111931911585729,0.283452486101329,-0.6433477498227692,0.0069082083848575,-0.0033375938891719,-0.3445751808504678,1.0,0.0011050611224373,0.0003020659832366,0.0134114970274881,0.0003616883087918,0.000258709968571,7.024708187222282e-05,0.0038336662961894,0.003874555075883,0.0054096277198242,2.8794258748736867,1.0
1523501425.3697443,351273.827458573,4026501.1387739633,2.2225384459955966,0.6348134872751233,60.06756717816455,1.0308247134334114,4.615055175023468,0.0272462360245282,-0.0116124427199913,0.0111872123225132,0.2834552512798814,-0.6433470061555502,0.0069022031002753,-0.0033384232440348,-0.3445763020922811,1.0,0.001105125136152,0.0003020556209308,0.0134131060714239,0.0003617256176797,0.0002587043644021,7.025740622047112e-05,0.0038338195729791,0.0038747472351891,0.0054096306334413,2.8794258748736867,1.0
1523501425.3697443,351273.8274884136,4026501.138742367,2.2225384460015065,0.6348134872702325,60.0677576211095,1.0308572289806754,4.615010460370712,0.0273316065155609,-0.0115201282228141,0.0111576114102224,0.2834536750990514,-0.643347499191079,0.0068623544684724,-0.0033523753474853,-0.3445760045891479,1.0,0.0011048850018794,0.0003020716371469,0.0134153949764297,0.000361631878893,0.000258716144194,7.028538388408597e-05,0.0038340227126509,0.0038746854513711,0.0054096195442183,2.8794258748736867,1.0
1523501425.3697443,351273.82746356004,4026501.138752408,2.222538445996636,0.6348134872717448,60.06751000636589,1.0308391792019842,4.615018867712919,0.0272542377704591,-0.0115870846336452,0.0111634352893001,0.2834529488798021,-0.6433476358443292,0.006886973266873,-0.003337780889091,-0.3445755242491337,1.0,0.0011047834864429,0.0003020734463202,0.0134137032054571,0.000361622967446,0.0002587172970821,7.025965473083714e-05,0.0038339523106385,0.0038744174440578,0.0054096259932026,2.8794258748736867,1.0
1523501425.3697443,351273.82749506825,4026501.1387546174,2.222538446002756,0.6348134872721777,60.067726274210166,1.030861976594498,4.6150210279711406,0.0272785298187439,-0.011593005953967,0.0111741364263407,0.2834530567375171,-0.6433475462975327,0.006889562301704,-0.003341687127062,-0.3445754743086333,1.0,0.0011049121390389,0.0003020849823344,0.0134135705602953,0.0003616443995139,0.0002587224738683,7.025939921889157e-05,0.0038339616483284,0.003874438235908,0.0054096498386682,2.8794258748736867,1.0
1523501425.3697443,351273.82749639504,4026501.138761892,2.2225384460029907,0.6348134872733253,60.06781799050893,1.0308544447106482,4.615027553921424,0.0272972795192563,-0.0115928155091783,0.0111662096323803,0.2834527041944375,-0.6433477278928377,0.0068902861510007,-0.0033383244231893,-0.3445754131173137,1.0,0.0011049462808995,0.0003021235684998,0.0134135715303966,0.000361653875199,0.0002587401269033,7.02600578863807e-05,0.0038340300568908,0.0038744656828732,0.0054097015632115,2.8794258748736867,1.0
1523501425.3697443,351273.82752098225,4026501.138757895,2.222538446007787,0.6348134872727632,60.06772225597824,1.0308535780829766,4.615017799264022,0.0272758162840984,-0.0115904393230466,0.011166455569472,0.2834530782369857,-0.643347608392692,0.0068888431174191,-0.0033377454116815,-0.3445755817807245,1.0,0.0011048696057483,0.0003020801325203,0.0134135689324271,0.0003616207390311,0.0002587193630982,7.025910417354236e-05,0.0038339460306074,0.003874352436592,0.0054096259400217,2.8794258748736867,1.0
1523501425.3697443,351273.82754268945,4026501.1387656303,2.222538446011984,0.6348134872740384,60.06770763777303,1.0308520963311627,4.615025970367824,0.02726460141245,-0.0115821854769202,0.0111674390807189,0.2834532372209908,-0.6433476422939741,0.006886246944835,-0.0033365465565124,-0.3445756751710893,1.0,0.0011048465996398,0.0003020856962821,0.0134135699908999,0.0003616103572459,0.0002587219283354,7.025924881819502e-05,0.0038339573576261,0.0038743257790803,0.0054096374957,2.8794258748736867,1.0
1523501425.3697443,351273.8275050839,4026501.1385828266,2.2225384460052733,0.634813487245182,60.06809427383177,1.0308255283027257,4.615052384589262,0.0273762327171448,-0.0116439183136722,0.0110510654535167,0.2834997924221113,-0.6433522160213881,0.0068711660454952,-0.003282391739257,-0.3445705848349583,1.0,0.0011044558618409,0.0003020751052631,0.0134119505280762,0.0003614351301676,0.0002586836389111,7.02574751167548e-05,0.0038325628033859,0.0038734880638802,0.0054096544552298,2.8794258748736867,1.0
1523501425.3697443,351273.8275428435,4026501.13875394,2.2225384460120514,0.6348134872722007,60.06784632459755,1.030849527028669,4.615001886442911,0.027363776167134,-0.0115940741304365,0.011168287879163,0.2834534025286499,-0.6433476813713033,0.006890107433837,-0.0033394003276425,-0.3445757289892313,1.0,0.001104823765708,0.0003020906362239,0.0134135721806168,0.0003616008591184,0.0002587260883087,7.025951351413237e-05,0.0038339679907605,0.0038742691304925,0.0054096729087982,2.8794258748736867,1.0
1523501425.3697443,351273.8275511116,4026501.138769234,2.222538446013609,0.6348134872746285,60.0677088056872,1.0308478497152989,4.615020825545396,0.0272655837611256,-0.0115899598640236,0.0111640426367785,0.2834531383023024,-0.6433476096572689,0.00688930972195,-0.0033366009857474,-0.3445756161322229,1.0,0.0011048082541076,0.0003020887539202,0.0134135695990623,0.0003615927164707,0.0002587237424862,7.025921527317839e-05,0.003833965206852,0.0038742472227139,0.0054096352201774,2.8794258748736867,1.0
1523501425.3697443,351273.82756440825,4026501.1387694986,2.2225384460161943,0.634813487274706,60.06772233268227,1.0308528879810814,4.615017299036386,0.0272758033229543,-0.0115903906157545,0.0111664323144624,0.2834530761609318,-0.6433476099817298,0.0068888221222615,-0.0033377246521793,-0.3445755813590404,1.0,0.0011047866806324,0.000302088293425,0.0134135690475554,0.0003615821247855,0.0002587229497849,7.025912004368138e-05,0.0038339599386279,0.0038742051331609,0.0054096280638619,2.8794258748736867,1.0
1523501425.3697443,351273.8275661782,4026501.138762159,2.222538446016564,0.6348134872735564,60.06791341414679,1.0308537529235935,4.615010376359483,0.0272873258343021,-0.0115900211393696,0.0111697900804683,0.283453270366075,-0.6433475344329608,0.0068892237228654,-0.0033382304515988,-0.3445756255132616,1.0,0.0011048212555253,0.0003022692556143,0.0134312276964227,0.0003616108315552,0.0002588051467023,7.032623541124115e-05,0.0038342465443532,0.0038743485375685,0.0054152734678445,2.8792394706118967,1.0
1523501425.3697443,351273.82759406965,4026501.13877412,2.222538446021948,0.6348134872755135,60.06772232346997,1.0308514867994467,4.6150170622276265,0.0272756969402611,-0.0115904379747933,0.0111663911275131,0.2834530797040743,-0.6433476104431717,0.0068888377220557,-0.0033377173347796,-0.3445755842820874,1.0,0.0011047796679547,0.0003021454187211,0.0134135693151658,0.0003615778488046,0.0002587507249181,7.025910598172747e-05,0.0038340655679408,0.0038741883452072,0.0054096262111154,2.8794258748736867,1.0
1523501425.3697443,351273.8275871664,4026501.1387683926,2.222538446020624,0.6348134872745941,60.06774003527786,1.030844610298873,4.615002255424576,0.0272887963205074,-0.0115874604626778,0.0111636786758631,0.2834529170078509,-0.6433476396153028,0.0068884764710717,-0.0033350909926389,-0.3445755456198156,1.0,0.0011046946429667,0.0003020962874394,0.0134135701499402,0.0003615461981747,0.0002587294885857,7.025933775193713e-05,0.0038339899062104,0.0038740626511048,0.005409654155243,2.8794258748736867,1.0
1523501425.3697443,351273.8276201897,4026501.138780181,2.2225384460270083,0.6348134872765375,60.06772416310912,1.0308519324389926,4.615017333286264,0.027275925673402,-0.0115904471308586,0.0111664250339466,0.2834530750113622,-0.6433476095092658,0.0068888517019583,-0.0033377281284863,-0.3445755820622867,1.0,0.0011046769354244,0.0003020974899059,0.0134135774626021,0.0003615277438622,0.0002587283984209,7.025942973870537e-05,0.0038339836953068,0.0038739963477384,0.0054096417353891,2.8794258748736867,1.0
1523501425.3697443,351273.8276380542,4026501.138783245,2.2225384460304727,0.6348134872770677,60.06766572072951,1.0308509040497351,4.61502428942474,0.0272339402428088,-0.0115896811109279,0.0111662268659282,0.2834529103076687,-0.6433475576897594,0.0068885858140066,-0.0033374496438496,-0.3445755093433355,1.0,0.0011046537997982,0.0003021019056068,0.0134135707907639,0.0003615166138637,0.0002587306610954,7.025939809954674e-05,0.0038339977344021,0.0038739594462492,0.0054096500534311,2.8794258748736867,1.0
1523501425.3697443,351273.8276543569,4026501.138771235,2.222538446033684,0.6348134872752228,60.06774011727696,1.0308613644387297,4.615002511291769,0.027288460736268,-0.0115908763392757,0.0111695230912591,0.2834528654460102,-0.6433476749203596,0.0068884449378045,-0.0033392854575048,-0.3445756603761069,1.0,0.001104614288488,0.0003020963734754,0.0134135690632034,0.0003615022892339,0.0002587283468391,7.025915255228639e-05,0.0038339827378917,0.0038738988128431,0.0054096329152852,2.8794258748736867,1.0
1523501425.3697443,351273.82766656467,4026501.13878256,2.22253844603602,0.6348134872770376,60.06772211031193,1.0308523716787583,4.615017322469842,0.0272756166537261,-0.0115904617538669,0.0111664867333323,0.2834530842591719,-0.6433476089105855,0.0068888286325929,-0.0033377572838763,-0.3445755805048403,1.0,0.0011046047602976,0.0003021035615945,0.0134135699066941,0.0003614924027353,0.00025873195538,7.025925201104297e-05,0.0038340011270146,0.0038738624296993,0.0054096386893269,2.8794258748736867,1.0
1523501425.3697443,351273.8276837093,4026501.138769488,2.2225384460393984,0.6348134872750281,60.06767425797204,1.0308628480931246,4.614992633310383,0.0272399711444525,-0.0115923921678476,0.0111665256303425,0.2834524492585061,-0.6433474211447383,0.0068896161776571,-0.0033381832018741,-0.3445753238959838,1.0,0.0011045826478987,0.0003020966382748,0.013413569224069,0.0003614811880088,0.0002587275528969,7.025916726448508e-05,0.0038339833760867,0.0038738232374297,0.0054096297331342,2.8794258748736867,1.0
1523501425.3697443,351273.8276903766,4026501.138785593,2.222538446040641,0.6348134872775792,60.06772211853689,1.03085209733522,4.615017709838288,0.027275572078988,-0.0115904149748457,0.0111664358032608,0.2834530862110057,-0.6433476115797905,0.0068888309070031,-0.003337731762732,-0.3445755866216636,1.0,0.0011045656122795,0.0003021021187527,0.0134135697641603,0.000361472643343,0.0002587306795721,7.025922387032442e-05,0.0038339922528421,0.0038737868530656,0.0054096368610422,2.8794258748736867,1.0
1523501425.3697443,351273.8277183538,4026501.1387784574,2.2225384460461077,0.6348134872765328,60.067759500469634,1.030857217106958,4.615006985118203,0.0273026087635719,-0.0115919553605068,0.0111694065344512,0.283453289390314,-0.6433476335969537,0.0068886061897774,-0.0033394259508476,-0.3445756565932987,1.0,0.0011045338973153,0.0003021107571134,0.0134135716197677,0.000361458083455,0.0002587356723933,7.025957308825653e-05,0.0038340109298684,0.0038737284252918,0.0054096567494151,2.8794258748736867,1.0
1523501425.3697443,351273.8277309917,4026501.138787446,2.222538446048535,0.6348134872779806,60.06772191009616,1.0308493490240789,4.61501758093415,0.0272754668036812,-0.0115903597479794,0.0111661721045632,0.283453070242567,-0.6433476087174895,0.0068888477599668,-0.0033376020716486,-0.3445755782956196,1.0,0.0011044851216785,0.0003020957058728,0.0134135684036789,0.0003614329094719,0.0002587270948147,7.02590309313375e-05,0.0038339764838438,0.0038736346564903,0.0054096189845641,2.8794258748736867,1.0
1523501425.3697443,351273.82774652867,4026501.138788832,2.2225384460515523,0.6348134872782408,60.067722622004695,1.0308486799273109,4.615017362864986,0.0272758080412257,-0.0115903841419367,0.0111662643595149,0.2834530610436352,-0.6433476086578592,0.0068888503760718,-0.0033376475462403,-0.344575573700332,1.0,0.0011044925772743,0.0003021249871704,0.0134135735633269,0.0003614374752502,0.0002587429837884,7.025971694049092e-05,0.0038340433256617,0.0038736551226605,0.0054096852326032,2.8794258748736867,1.0
1523501425.3697443,351273.82776371867,4026501.1387937297,2.2225384460548803,0.6348134872790577,60.0677252361397,1.0308507172571388,4.615022955332687,0.0272776907347181,-0.0115903978095137,0.0111663665626573,0.2834532607791133,-0.6433476615966008,0.0068888194913949,-0.0033377072815458,-0.3445756587738748,1.0,0.0011044620956807,0.0003021150521128,0.0134135723565893,0.0003614235993948,0.0002587381273298,7.025955639866964e-05,0.0038340252760036,0.0038736045309353,0.0054096708235624,2.8794258748736867,1.0
1523501425.3697443,351273.82777190086,4026501.1387793086,2.222538446056519,0.6348134872768119,60.06784648282707,1.030844218757026,4.615002310662688,0.0273637985408633,-0.0115940142522932,0.0111681751334379,0.2834534042403688,-0.643347683470931,0.0068901008258375,-0.0033393359943828,-0.3445757302442884,1.0,0.0011044171903166,0.0003021022046669,0.0134135701462808,0.000361401371381,0.0002587314186684,7.02592596922338e-05,0.0038339875529486,0.0038735070444589,0.0054096339107768,2.8794258748736867,1.0
1523501425.3697443,351273.827829829,4026501.138779,2.22253844606779,0.6348134872769196,60.06844392490851,1.0308576786599437,4.61500293703247,0.0273295251259863,-0.0115759355241854,0.011165810918298,0.2834523802145657,-0.6433478067972127,0.0068838229364126,-0.0033407724365805,-0.3445753563084869,1.0,0.001104416152106,0.0003021053041542,0.0134133181237246,0.0003613850123117,0.000258731564682,7.025956319893159e-05,0.0038339916744674,0.0038734738720273,0.005409638509019,2.8794258748736867,1.0
1523501425.3697443,351273.8278236546,4026501.138791738,2.2225384460665447,0.6348134872789071,60.06772830134039,1.0308468904570312,4.615017877644437,0.0272766888232341,-0.0115903884259346,0.0111660985471525,0.2834530756200363,-0.6433476083398076,0.0068888792689721,-0.0033375801685092,-0.3445755768401653,1.0,0.0011043533597134,0.0003021091703866,0.0134135877991232,0.0003613697994946,0.0002587353267092,7.026011377437823e-05,0.0038340155589648,0.0038733977098059,0.0054096645078509,2.8794258748736867,1.0
1523501425.3697443,351273.82785369304,4026501.13879181,2.222538446072387,0.6348134872789997,60.067721582871656,1.030846301532619,4.615017554550049,0.0272751148755484,-0.0115904556733283,0.0111659169572481,0.283453067251639,-0.6433476059304901,0.0068889254355487,-0.0033375076772731,-0.3445755750066262,1.0,0.0011042901911662,0.0003020990861072,0.0134135685667775,0.0003613364306469,0.000258728865835,7.025904865786282e-05,0.0038339837475861,0.0038732609687379,0.0054096207762372,2.8794258748736867,1.0
1523501425.3697443,351273.8278426395,4026501.1387979896,2.2225384460702164,0.6348134872799419,60.06589670356263,1.0308369640954882,4.615023748198316,0.0271049339145663,-0.0115977415600138,0.0111538006263698,0.2834542717793091,-0.6433472948111578,0.0068882700894161,-0.0033306602879429,-0.3445760924872096,1.0,0.0011041542386766,0.0003021115827993,0.0134144201444943,0.0003613003349359,0.0002587353337128,7.026530134353814e-05,0.0038340234336003,0.0038731052517066,0.0054096211069978,2.8794258748736867,1.0
1523501425.3697443,351273.8278921796,4026501.138784124,2.2225384460799,0.6348134872778952,60.06768830562783,1.030835099820737,4.615006099432103,0.0272719061782464,-0.0115938158828242,0.0111642561955567,0.2834530178173278,-0.64334760747329,0.0068893943027795,-0.0033358743454309,-0.3445756033209791,1.0,0.0011041673945365,0.0003021045093442,0.0134135477083189,0.000361303387743,0.0002587306295112,7.025870418897173e-05,0.0038339911200035,0.0038731554267007,0.0054096250548321,2.8794258748736867,1.0
1523501425.3697443,351273.8279247416,4026501.138788049,2.22253844608622,0.6348134872786008,60.06772389691333,1.0308413959297855,4.615009935006836,0.0272758901721604,-0.0115892530981979,0.0111664373620378,0.2834530591315373,-0.6433476067819031,0.0068884714623586,-0.003337839132428,-0.3445755844229726,1.0,0.0011041966118356,0.0003021025524057,0.0134135702622791,0.0003612979072726,0.0002587300963594,7.025908738036966e-05,0.0038339856584309,0.0038731184649387,0.0054096207821225,2.8794258748736867,1.0
1523501425.3697443,351273.8279377972,4026501.138794618,2.222538446088737,0.6348134872796694,60.06772205859496,1.0308430125150911,4.615017463136924,0.0272758777216197,-0.0115902302357201,0.0111661658127181,0.2834530749244774,-0.6433476055065633,0.0068887605803671,-0.0033375721394328,-0.344575577618442,1.0,0.0011041575682564,0.0003021122899046,0.0134135684557089,0.0003612731693937,0.0002587352634361,7.02590010754535e-05,0.0038340081489983,0.0038730140644306,0.0054096188744234,2.8794258748736867,1.0
1523501425.3697443,351273.8279531987,4026501.1387949297,2.222538446091732,0.6348134872797601,60.06772214639126,1.0308430863680211,4.615017524725997,0.0272757797958524,-0.0115902990581459,0.0111661523316841,0.2834530728597028,-0.6433476055850521,0.0068887963670966,-0.0033375809729934,-0.344575576680279,1.0,0.0011041219986335,0.0003021016603895,0.0134135686669131,0.0003612558647408,0.0002587301978659,7.025904997955539e-05,0.0038339891207781,0.0038729464910209,0.005409622458528,2.8794258748736867,1.0
1523501425.3697443,351273.8279697502,4026501.138794448,2.2225384460949527,0.6348134872797292,60.067721982754165,1.0308425366537983,4.615017566692354,0.0272755991165276,-0.0115903804134585,0.0111660765541065,0.2834530747107494,-0.6433476057927561,0.0068888463354224,-0.0033375640726493,-0.344575577985554,1.0,0.0011040938149878,0.0003021002201723,0.013413568529737,0.000361241686783,0.000258729438382,7.025902053329375e-05,0.0038339861229448,0.0038728909739627,0.0054096208163292,2.8794258748736867,1.0
1523501425.3697443,351273.82798743667,4026501.138793768,2.222538446098395,0.6348134872796701,60.06772182908014,1.0308422394307906,4.615017580495295,0.0272755164989781,-0.0115904329558752,0.0111660191781799,0.2834530747866992,-0.6433476057759269,0.0068888797525704,-0.003337549334278,-0.3445755782880748,1.0,0.0011040634564391,0.0003020995379568,0.0134135685312244,0.0003612264424835,0.0002587290647897,7.025901797908249e-05,0.0038339843366034,0.0038728311809373,0.0054096206751025,2.8794258748736867,1.0
1523501425.3697443,351273.8280060521,4026501.1387933297,2.222538446102017,0.6348134872796516,60.06772167603236,1.030841905279476,4.615017554783981,0.0272754375768606,-0.0115904483152477,0.0111659908757084,0.283453076198733,-0.6433476055492953,0.0068888901564193,-0.0033375398532998,-0.3445755789461791,1.0,0.0011040300508585,0.0003020983587238,0.0134135684098305,0.0003612098102956,0.0002587284096984,7.025900038572732e-05,0.0038339815053769,0.0038727660879107,0.0054096188827659,2.8794258748736867,1.0
1523501425.3697443,351273.8280210784,4026501.1387965926,2.22253844610493,0.6348134872802054,60.06749349712598,1.0308379801657412,4.615020703403636,0.0272603504504514,-0.0115836295162417,0.0111610998916997,0.2834530481747759,-0.6433476210485953,0.0068853280563445,-0.0033374691332082,-0.3445756036159624,1.0,0.0011039995034129,0.0003020982962413,0.0134139196350801,0.0003611954128369,0.0002587280361613,7.026107468919738e-05,0.0038340215390282,0.0038727169043503,0.0054096184205401,2.8794258748736867,1.0
1523501425.3697443,351273.82802104374,4026501.138792732,2.222538446104935,0.6348134872795984,60.067743066260384,1.0308417060582609,4.615015623704185,0.0272914843891995,-0.011593680938375,0.0111663426180557,0.2834529725020279,-0.6433475805680006,0.0068903655260166,-0.0033384108047692,-0.3445755344262891,1.0,0.0011039632118333,0.0003021001242798,0.0134135684096157,0.0003611862755756,0.0002587299405003,7.025904609053554e-05,0.0038339866251026,0.003872665625965,0.0054096276081126,2.8794258748736867,1.0
1523501425.3697443,351273.8280500412,4026501.138785168,2.2225384461106,0.6348134872784872,60.067846483389545,1.0308367046859963,4.615003513204562,0.0273642716331787,-0.0115939850222184,0.0111678106701292,0.2834534331969658,-0.643347686145812,0.0068901264618479,-0.0033391655084125,-0.34457574184311,1.0,0.0011039373028719,0.0003021088409442,0.013413570169387,0.0003611659989777,0.0002587347516101,7.025924458525639e-05,0.00383400025015,0.0038725840170687,0.005409643751302,2.8794258748736867,1.0
1523501425.3697443,351273.82807656704,4026501.138794693,2.222538446115729,0.6348134872800572,60.0677218132416,1.0308416091967705,4.61501754557813,0.0272757250448815,-0.0115902578753624,0.0111660598208098,0.2834530754706391,-0.6433476054599082,0.0068887897753787,-0.0033375295826538,-0.3445755779735184,1.0,0.001103885454765,0.0003020989230263,0.0134135683706978,0.000361140008651,0.0002587286877855,7.025898599767484e-05,0.0038339826038391,0.0038724942872037,0.0054096187794956,2.8794258748736867,1.0
1523501425.3697443,351273.8280660741,4026501.1386148697,2.222538446114283,0.6348134872517425,60.06809384277659,1.0308135949238708,4.615052497237169,0.0273760005992234,-0.0116437248029128,0.0110506557404987,0.283499786273329,-0.6433522122837645,0.0068711104672826,-0.0032821664213508,-0.3445705798283493,1.0,0.0011034506208064,0.0003020838376717,0.0134119486040833,0.0003609421000086,0.0002586876149069,7.025717215480873e-05,0.0038325765112678,0.003871580852197,0.0054096289948334,2.8794258748736867,1.0
1523501425.3697443,351273.828110353,4026501.138797338,2.222538446122292,0.6348134872805645,60.06772216869208,1.0308403828037065,4.615019267811522,0.027276099597351,-0.0115902749438282,0.011165975607454,0.2834531245388399,-0.6433476136365801,0.0068888120733566,-0.0033374903008238,-0.3445756030529744,1.0,0.0011038280162333,0.0003021118885011,0.0134135703888806,0.0003611124669527,0.0002587362101762,7.025925813425127e-05,0.0038340101187147,0.0038723876406282,0.00540964745588,2.8794258748736867,1.0
1523501425.3697443,351273.82805854594,4026501.138790647,2.2225384461122397,0.6348134872793719,60.06653634306909,1.0308264938877696,4.615013087004894,0.0271661476291059,-0.0115983742249754,0.0111352619011118,0.2834523772210487,-0.6433477911356698,0.006882065933731,-0.0033219165053651,-0.3445753861351798,1.0,0.0011036615971274,0.0003021215916353,0.0134140183722111,0.0003610530499191,0.0002587405536532,7.026204711859922e-05,0.0038342182766867,0.0038721929833962,0.0054096385522021,2.8794258748736867,1.0
1523501425.3697443,351273.82786171214,4026501.138623429,2.222538446074496,0.6348134872525378,60.068081389777625,1.0307937187806098,4.615053803701664,0.0273659301017844,-0.011645475049517,0.0110487405890211,0.2834993464477015,-0.643352156328133,0.006872328704538,-0.0032816592542987,-0.3445703787402333,1.0,0.0011020600654809,0.000302166849181,0.013411962233934,0.0003608240294496,0.0002587277372845,7.025831208813487e-05,0.0038327355049269,0.0038713988768947,0.0054097503391438,2.879445496374928,1.0
1523501425.3697443,351273.8281600626,4026501.138795099,2.222538446131969,0.6348134872803471,60.06772185252682,1.0308392773012869,4.615018228248223,0.0272755573528405,-0.0115903797290977,0.0111659586105011,0.2834530818637063,-0.6433476088300942,0.0068888556444654,-0.003337510238808,-0.3445755846832029,1.0,0.0011037259099179,0.0003020993276863,0.0134135687762229,0.0003610617172816,0.0002587292312375,7.025903846907061e-05,0.003833984842606,0.0038721883736001,0.0054096230298386,2.8794258748736867,1.0
1523501425.3697443,351273.8280995592,4026501.13878576,2.2225384461202293,0.6348134872787153,60.06779641063032,1.0308176611679645,4.615004043068026,0.0273320355358221,-0.0115763227324868,0.0111655271076884,0.2834526356320463,-0.6433476190082439,0.006882568718212,-0.0033349385294943,-0.3445753878340181,1.0,0.0011034708990343,0.000302179016124,0.0134135759411492,0.0003610731169349,0.0002587714843675,7.026031559063955e-05,0.0038341548940284,0.0038722870083481,0.0054097975751823,2.879435685624307,1.0
1523501425.3697443,351273.8281887865,4026501.138791527,2.222538446137568,0.6348134872798633,60.067693837210825,1.0308309453143565,4.615013172168409,0.0272557103776975,-0.0115913135362997,0.0111640641203095,0.2834529682436787,-0.6433475886303152,0.0068896749464037,-0.0033368520820938,-0.344575523286698,1.0,0.001103663511241,0.0003020966825305,0.0134135699805161,0.0003610307807298,0.0002587275153125,7.025907364527466e-05,0.0038339805609046,0.0038720707337248,0.0054096221937932,2.8794258748736867,1.0
1523501425.3697443,351273.8282061026,4026501.138790496,2.22253844614094,0.6348134872797475,60.06769294199731,1.0308471265791883,4.615009651177289,0.0272551083781663,-0.01159042939991,0.0111686257093292,0.2834532114568396,-0.6433476363603947,0.0068883009092214,-0.0033387164972647,-0.3445756519193531,1.0,0.0011037212006439,0.000302166509025,0.0134135703151721,0.0003610583110179,0.000258761393437,7.025921807138695e-05,0.0038341098798116,0.0038721767808865,0.00540963798664,2.8794258748736867,1.0
1523501425.3697443,351273.8281950692,4026501.138804432,2.222538446138747,0.6348134872819098,60.06778744532209,1.030828533344439,4.615022210019534,0.0273238327962897,-0.0115900674380517,0.0111663568800122,0.2834531155104913,-0.6433476235017969,0.0068886188718238,-0.003337608501799,-0.344575596510563,1.0,0.0011036829600305,0.0003021358478191,0.0134135755046392,0.0003610417154687,0.0002587489149046,7.025992339388397e-05,0.0038340644154156,0.0038721097253247,0.0054097084213544,2.8794258748736867,1.0
1523501425.3697443,351273.828228453,4026501.138793288,2.222538446145278,0.6348134872802467,60.06775393483662,1.0308577865662316,4.615006978630313,0.0273001841291354,-0.0115915375076221,0.011168518326594,0.2834526931598765,-0.6433475121276763,0.0068888371878216,-0.0033389137119701,-0.3445754000109113,1.0,0.0011038863748151,0.0003023341249892,0.0134136089580161,0.0003611415689967,0.0002588514450659,7.026422839144698e-05,0.0038344860879477,0.0038725007536699,0.0054101238126095,2.8794258748736867,1.0
1523501425.3697443,351273.8268246382,4026501.138840859,2.2225384458720203,0.6348134872839415,60.06777266559528,1.0307416037024333,4.615034313751339,0.0273171105710746,-0.0115900026377719,0.0111657373632932,0.2834541973481535,-0.6433479802993556,0.0068886937413055,-0.0033373057932973,-0.3445760712730199,1.0,0.0010946911223246,0.0003023006001412,0.0134135787645566,0.0003604084243185,0.000258830039903,7.026072009617969e-05,0.003834378891364,0.0038717951185869,0.0054099891575913,2.879504360878651,1.0
1523501425.3697443,351273.82823166304,4026501.138798503,2.222538446145885,0.6348134872810759,60.067783666448776,1.0308439608951063,4.615012505058666,0.0273134641375355,-0.0115892112219917,0.0111622304820182,0.2834529928332652,-0.6433476291851757,0.0068895657792245,-0.0033357047509684,-0.3445755684833825,1.0,0.001103783167747,0.0003022715926189,0.0134135972512794,0.0003610906054996,0.0002588179774602,7.026261941037093e-05,0.0038343399175602,0.0038722938173889,0.0054099736149838,2.8794258748736867,1.0
1523501425.3697443,351273.82823421864,4026501.138808273,2.22253844614635,0.6348134872826199,60.067763971422096,1.030838137769292,4.615016718825614,0.0273027670137488,-0.0115893647930063,0.0111652975286285,0.2834530352128608,-0.643347594156719,0.0068887023497552,-0.0033373051149848,-0.3445755804784222,1.0,0.0011036139816751,0.0003021491628998,0.0134135769287619,0.0003610109327024,0.0002587561078317,7.026017839268903e-05,0.0038340969345397,0.003872002164635,0.005409729162548,2.8794258748736867,1.0
1523501425.3697443,351273.8282388258,4026501.138810603,2.222538446147237,0.6348134872829988,60.06772181979437,1.0308369821940615,4.615017544421767,0.0272756799411823,-0.0115902787429311,0.0111658733046622,0.283453077047714,-0.6433476086514401,0.0068888213109141,-0.0033374533528271,-0.3445755826295037,1.0,0.0011035550828343,0.0003021028785462,0.0134135686711598,0.0003609779431184,0.0002587308286189,7.025902689931815e-05,0.0038339914353667,0.0038718669037942,0.0054096218352146,2.8794258748736867,1.0
1523501425.3697443,351273.8285935854,4026501.138868625,2.222538446216037,0.6348134872930844,60.07814387653198,1.0309435364727288,4.615113976628495,0.0280194603519987,-0.011889275412919,0.0114075557495204,0.2834522238188627,-0.6433475502058167,0.0070547478604089,-0.0033475188260351,-0.3445736242234679,1.0,0.0011039880126567,0.0003020811043139,0.0133997741894547,0.000361075966444,0.0002587151063126,7.020094527516505e-05,0.0038322000913297,0.0038719075187974,0.00540965013834,2.8794258748736867,1.0
1523501425.3697443,351273.8282533947,4026501.138797518,2.2225384461501125,0.6348134872809638,60.0450016169194,1.0307653318311705,4.614936149437838,0.025702166894683,-0.0111183005900012,0.0104488815957188,0.2833937620059433,-0.643347574850324,0.0065333276442439,-0.0032083899563612,-0.3445797881656312,1.0,0.0011018760200797,0.0003032225884635,0.0134204283382143,0.0003608914578008,0.000259273457946,6.988131916694463e-05,0.0038401643099208,0.0038723470573937,0.0054178688154775,2.878631204073424,1.0
1523501425.3697443,351273.82825966587,4026501.138815671,2.2225384461512743,0.6348134872838525,60.067721848109805,1.0308361787313751,4.615017700244632,0.0272756888644786,-0.0115902470283835,0.0111658567392653,0.2834530799427347,-0.6433476090573315,0.0068888088992987,-0.0033374380347046,-0.3445755840987445,1.0,0.001103506193809,0.0003021054443698,0.0134135687648373,0.0003609551047352,0.0002587320550315,7.025903180366137e-05,0.0038339963984355,0.0038717802193474,0.0054096235775809,2.8794258748736867,1.0
1523501425.3697443,351273.8282665372,4026501.1388177774,2.2225384461526043,0.6348134872842023,60.06772174605506,1.030836517562298,4.61501753672428,0.0272755824109395,-0.0115902575085483,0.0111658532374446,0.2834530800569451,-0.6433476087605563,0.006888811882619,-0.003337439775862,-0.3445755842222535,1.0,0.0011034874248986,0.0003021048196435,0.0134135685031462,0.0003609464777453,0.0002587316714935,7.025899803513818e-05,0.0038339945793182,0.003871746972472,0.0054096200632436,2.8794258748736867,1.0
1523501425.3697443,351273.82828671474,4026501.138818857,2.2225384461565265,0.6348134872844267,60.06778876901809,1.0308359728588468,4.615018286004543,0.0272780052569616,-0.0115908461822213,0.0111657359203623,0.2834530753460578,-0.6433476114186526,0.0068889367059776,-0.0033372644842232,-0.3445755668309874,1.0,0.0011034433948769,0.0003021014939574,0.0134135801753455,0.0003609251778644,0.0002587307372847,7.025951091038761e-05,0.0038339933617417,0.0038716681758376,0.0054096513981577,2.879416064123066,1.0
1523501425.3697443,351273.82836319634,4026501.138826512,2.222538446171374,0.634813487285838,60.06655294330399,1.0308640899493922,4.615031695629282,0.0271588167424222,-0.0115872998957697,0.011212460860285,0.2834527159184083,-0.6433476741131074,0.0069004640945037,-0.0033559181618893,-0.3445752912715942,1.0,0.0011033585144626,0.0003021110985342,0.0134149685710022,0.0003609208800993,0.0002587338315455,7.02674086520264e-05,0.0038340526251611,0.0038717700368527,0.0054096198507031,2.8794258748736867,1.0
1523501425.3697443,351273.8283806311,4026501.138844445,2.2225384461747084,0.6348134872887051,60.06785357976784,1.0308602522453914,4.61505066347726,0.0272917840324778,-0.0115819251648756,0.0111755614328802,0.2834485011444594,-0.6433488444104346,0.0068887118892719,-0.0033429865188286,-0.3445737844157573,1.0,0.0011033312158054,0.0003021008821801,0.0134135080238188,0.0003608756818418,0.0002587260155474,7.026217627549568e-05,0.0038339467928642,0.0038714767569971,0.005409623084238,2.8794258748736867,1.0
1523501425.3697443,351273.8283718185,4026501.138818388,2.222538446173082,0.6348134872845833,60.06772172320727,1.030831496438095,4.615017660039078,0.0272758528626403,-0.0115901507888536,0.0111658003876532,0.2834530702934047,-0.6433476080476253,0.006888759620195,-0.0033373934257809,-0.3445755795942956,1.0,0.0011033408830477,0.0003021028324313,0.0134135686144244,0.000360850945081,0.0002587308169854,7.025899203720728e-05,0.0038339917224552,0.0038713712673239,0.0054096202080622,2.8794258748736867,1.0
1523501425.3697443,351273.82839775714,4026501.138818092,2.222538446178129,0.6348134872846067,60.06772205143445,1.03083057404356,4.615017744759689,0.0272759339152495,-0.0115901013342227,0.0111657316098955,0.2834530705289043,-0.6433476081138599,0.0068887487724234,-0.003337353426457,-0.3445755801808442,1.0,0.0011033339759123,0.0003021039385865,0.0134135691406243,0.0003608315509632,0.0002587315393057,7.025906381804489e-05,0.0038339950160853,0.0038712886841954,0.0054096252630631,2.8794258748736867,1.0
1523501425.3697443,351273.8284116512,4026501.138818479,2.2225384461808297,0.6348134872847053,60.06772210825121,1.030830799947792,4.61501749475222,0.027275844222063,-0.0115901084433783,0.011165708172431,0.2834530700068816,-0.6433476076811933,0.0068887579785802,-0.0033373446893454,-0.3445755794067415,1.0,0.001103323814191,0.000302105152795,0.0134135690797553,0.0003608215548661,0.0002587317970825,7.025907015636766e-05,0.0038339951562128,0.0038712462457849,0.0054096234750769,2.8794258748736867,1.0
1523501425.3697443,351273.8284249941,4026501.138823193,2.2225384461834103,0.6348134872854829,60.067697693459145,1.030827445747149,4.615023523032368,0.027257751689132,-0.0115908378384187,0.0111639408352047,0.2834530142096229,-0.643347601058487,0.006889598489032,-0.0033368324086392,-0.3445755651125297,1.0,0.0011032929705506,0.0003021319480697,0.013413572607791,0.0003608143893601,0.0002587446426516,7.025953946980544e-05,0.0038340486203718,0.0038712218060861,0.0054096699915843,2.8794258748736867,1.0
1523501425.3697443,351273.8284387008,4026501.138819819,2.222538446186087,0.6348134872849891,60.06772169385034,1.0308307294124752,4.615017165925208,0.0272756809679753,-0.0115901605329906,0.0111656733765765,0.2834530766562321,-0.6433476089629829,0.0068887892463814,-0.0033373410931228,-0.3445755832290575,1.0,0.0011031866859188,0.0003021199483587,0.0134135683904666,0.0003607886045428,0.0002587356601358,7.02589691147387e-05,0.0038340041424007,0.0038711241831974,0.0054096181660947,2.8794258748736867,1.0
